[{"id":1,"name":"/dev/tal","url":"https://www.devtal.de/blog/","address":"Mirker Str. 48a, 42105 Wuppertal, Germany","lat":"51.26695","lng":"7.1457","contact_email":"info@devtal.de","contact_wiki":"","contact_ml":"discuss@lists.devtal.de","contact_irc":"ircs://irc.libera.chat/devtal"},{"id":2,"name":"57North Hacklab","url":"https://57north.org.uk/","address":"57North Hacklab, c/o Aberdeen Action on Disability, Suite H, Kettock Lodge, Innovation Park, Campus Two, Bridge of Don, Aberdeen AB22 8GU","lat":"57.17947","lng":"-2.110614","contact_email":"","contact_wiki":"","contact_ml":"57north-discuss@lists.57north.org.uk","contact_irc":"irc://irc.libera.chat/#57N"},{"id":3,"name":"ACKspace","url":"https://ackspace.nl/","address":"Kloosterweg 1, 6412 CN Heerlen","lat":"50.8924622","lng":"5.9712601","contact_email":"contact@ackspace.nl","contact_wiki":"","contact_ml":"info@lists.ackspace.nl","contact_irc":"ircs://irc.libera.chat:6697/ACKspace"},{"id":4,"name":"AFRA","url":"https://afra-berlin.de","address":"Margaretenstr. 30, 10317 Berlin, Germany","lat":"52.5082224","lng":"13.4961541","contact_email":"info@afra-berlin.de","contact_wiki":"","contact_ml":"afra@afra-berlin.de","contact_irc":"irc://irc.freenode.net/#afra"},{"id":5,"name":"Amman Valley MakerSpace","url":"https://cwmaman.org.uk/makerspace/","address":"Youth Resource Center/MakerSpace, Station Road, Glanamman, SA18 1LQ, Wales, United Kingdom","lat":"51.80626","lng":"-3.92288","contact_email":"robvenus@cwmamantc.org","contact_wiki":"","contact_ml":"","contact_irc":""},{"id":6,"name":"Apollo-NG","url":"https://apollo.open-resource.org","address":"","lat":"","lng":"","contact_email":"","contact_wiki":"","contact_ml":"talk@apollo.open-resource.org","contact_irc":"irc://irc.freenode.net/apollo"},{"id":7,"name":"Attraktor Makerspace","url":"https://blog.attraktor.org/","address":"Eschelsweg 4, 22767 Hamburg, Germany","lat":"53.5498443","lng":"9.946661","contact_email":"office@attraktor.org","contact_wiki":"","contact_ml":"traktoristen@lists.attraktor.org","contact_irc":""},{"id":8,"name":"AwesomeSpace","url":"https://awesomespace.nl","address":"Franciscusweg 18, 1216 SK, Hilversum, The Netherlands","lat":"52.213528","lng":"5.145344","contact_email":"info@awesomeretro.org","contact_wiki":"","contact_ml":"","contact_irc":""},{"id":9,"name":"B4CKSP4CE","url":"https://0x08.in","address":"Lanskoe shosse, 14/1, 197343, Saint-Petersburg, Russia","lat":"59.993811","lng":"30.309332","contact_email":"","contact_wiki":"","contact_ml":"","contact_irc":""},{"id":10,"name":"Bastli","url":"http://www.bastli.ch/","address":"AMIV Bastli, CAB E38, Universitätsstrasse 6, 8092 Zürich, Switzerland","lat":"47.37861","lng":"8.54924","contact_email":"go to http://bastli.ch/index.php?page=info","contact_wiki":"","contact_ml":"","contact_irc":""},{"id":11,"name":"Binary Kitchen","url":"https://www.binary-kitchen.de","address":"Binary Kitchen e.V., Walderdorffstr. 13b, 93053 Regensburg","lat":"49.00985285639763","lng":"12.118982076644897","contact_email":"info@binary-kitchen.de","contact_wiki":"","contact_ml":"","contact_irc":"irc://irc.hackint.org/#binary-kitchen"},{"id":12,"name":"Bitlair","url":"https://bitlair.nl/","address":"Nijverheidsweg-Noord 77, 3812 PK Amersfoort, The Netherlands","lat":"52.1697399","lng":"5.3561364","contact_email":"info@bitlair.nl","contact_wiki":"","contact_ml":"general@list.bitlair.nl","contact_irc":"irc://irc.smurfnet.ch/bitlair"},{"id":13,"name":"Breizh Entropy","url":"https://wiki.breizh-entropy.org/wiki/Breizh-Entropy","address":"134 Avenue du Général Leclerc, 35000 Rennes","lat":"48.11387","lng":"-1.63699","contact_email":"contact@breizh-entropy.org","contact_wiki":"","contact_ml":"","contact_irc":"ircs://irc.libera.chat/#breizh-entropy"},{"id":14,"name":"Brixel","url":"http://brixel.be","address":"Spalbeekstraat 34, 3510 Spalbeek, Belgium","lat":"50.95099639892578","lng":"5.230583190917969","contact_email":"info@brixel.be","contact_wiki":"","contact_ml":"","contact_irc":""},{"id":15,"name":"Brisbane Makerspace","url":"https://brisbanemaker.space","address":"146 Wickham St, Fortitude Valley, QLD 4006 Australia","lat":"-27.458819","lng":"153.032185","contact_email":"hello@brisbanemaker.space","contact_wiki":"","contact_ml":"","contact_irc":""},{"id":16,"name":"Bytespeicher","url":"https://technikkultur-erfurt.de","address":"Liebknechtstrasse 8, 99085 Erfurt, Germany","lat":"50.98271","lng":"11.03965","contact_email":"kontakt@technikkultur-erfurt.de","contact_wiki":"","contact_ml":"bytespeicher@lists.bytespeicher.org","contact_irc":"irc://irc.hackint.eu/bytespeicher"},{"id":17,"name":"C3D2","url":"https://www.c3d2.de/","address":"Raum 1.04.01, Haus B, Zentralwerk, Riesaer Str. 32, 01127 Dresden, Germany","lat":"51.0810791","lng":"13.7286123","contact_email":"mail@c3d2.de","contact_wiki":"","contact_ml":"c3d2@lists.c3d2.de","contact_irc":""},{"id":18,"name":"CCC Aachen","url":"https://aachen.ccc.de/","address":"Chaos Computer Club Aachen e.V., Schützenstraße 11, 52062 Aachen","lat":"50.771706","lng":"6.09148","contact_email":"mail@aachen.ccc.de","contact_wiki":"","contact_ml":"","contact_irc":"ircs://irc.hackint.org/#cccac"},{"id":19,"name":"Chaos Computer Club Basel","url":"https://ccc-basel.ch/","address":"Birsfelderstrasse 6, 4132 Muttenz, Switzerland","lat":"47.5323266","lng":"7.6342312","contact_email":"chaos@ccc-basel.ch","contact_wiki":"","contact_ml":"basel@chaostreff.ch","contact_irc":"ircs://irc.chaostreff.ch:6601/#basel"},{"id":20,"name":"CCC Cologne","url":"https://koeln.ccc.de/","address":"Chaos Computer Club Cologne (c4) e.V., Heliosstr. 6a, 50825 Köln, Germany","lat":"50.9504142","lng":"6.9129647","contact_email":"mail@koeln.ccc.de","contact_wiki":"","contact_ml":"","contact_irc":"ircs://irc.hackint.org/#cccc"},{"id":21,"name":"CCC Darmstadt","url":"https://www.chaos-darmstadt.de","address":"Wilhelminenstraße 17, 64283 Darmstadt, Germany","lat":"49.870889","lng":"8.651222","contact_email":"info@chaos-darmstadt.de","contact_wiki":"","contact_ml":"public@lists.darmstadt.ccc.de","contact_irc":"ircs://irc.hackint.org/chaos-darmstadt"},{"id":22,"name":"CCC Frankfurt","url":"https://ccc-ffm.de","address":"Hohenstaufenstraße 8, 60327 Frankfurt, Germany","lat":"50.10873","lng":"8.65656","contact_email":"noreply@ccc-ffm.de","contact_wiki":"","contact_ml":"","contact_irc":""},{"id":23,"name":"CCCHH","url":"https://hamburg.ccc.de/","address":"Zeiseweg 9, 22765 Hamburg, Germany","lat":"53.55836","lng":"9.94459","contact_email":"mail@hamburg.ccc.de","contact_wiki":"","contact_ml":"talk@hamburg.ccc.de","contact_irc":"ircs://irc.hackint.org:6697/#ccchh"},{"id":24,"name":"CCC Mannheim","url":"https://mannheim.ccc.de/","address":"CCC Mannheim e.V, Neckarauer Straße 106-116, 68163 Mannheim","lat":"49.46369","lng":"8.48862","contact_email":"info@ccc-mannheim.de","contact_wiki":"","contact_ml":"default@lists.ccc-mannheim.de","contact_irc":""},{"id":25,"name":"CCCFr","url":"https://cccfr.de","address":"Adlerstr. 12a, 79098 Freiburg, Deutschland","lat":"47.993194","lng":"7.840502","contact_email":"","contact_wiki":"","contact_ml":"ccc-fr@infra.de","contact_irc":""},{"id":26,"name":"Chaos Computer Club Wien (C3W)","url":"https://c3w.at/","address":"Rathausstrasse 6, 1010 Wien, Austria","lat":"48.2093723","lng":"16.356099","contact_email":"contact@c3w.at","contact_wiki":"","contact_ml":"","contact_irc":""},{"id":27,"name":"ChaosStuff","url":"https://wiki.c3l.lu/doku.php?id=chaosstuff","address":"60 Victor Hugo Avenue, Luxembourg-Limpertsberg, L-1750, Luxembourg","lat":"49.620709","lng":"6.122581","contact_email":"info@c3l.lu","contact_wiki":"","contact_ml":"chaosstuff@lists.c3l.lu","contact_irc":""},{"id":28,"name":"Chaosdorf","url":"https://chaosdorf.de","address":"Sonnenstr. 58, 40227 Düsseldorf, Germany","lat":"51.21261","lng":"6.79969","contact_email":"mail@chaosdorf.de","contact_wiki":"","contact_ml":"","contact_irc":"irc://irc.oftc.net/chaosdorf"},{"id":29,"name":"Chaospott","url":"https://chaospott.de","address":"Sibyllastr. 9, 45136 Essen, Germany","lat":"51.438476","lng":"7.024991","contact_email":"info@chaospott.de","contact_wiki":"","contact_ml":"discuss@lists.chaospott.de","contact_irc":"irc://irc.hackint.org/#chaospott"},{"id":30,"name":"Chaostreff Backnang","url":"https://chaostreff-backnang.de","address":"dasWohnzimmer, Willy-Brandt-Platz 2, 71522 Backnang, Germany","lat":"48.94862","lng":"9.42957","contact_email":"info@chaostreff-backnang.de","contact_wiki":"","contact_ml":"","contact_irc":""},{"id":31,"name":"Chaostreff Bern","url":"https://www.chaostreffbern.ch","address":"Zwyssigstrasse 45, 3007 Bern, Switzerland","lat":"46.944178","lng":"7.421927","contact_email":"info@chaostreffbern.ch","contact_wiki":"","contact_ml":"bern@chaostreff.ch","contact_irc":""},{"id":32,"name":"Chaostreff Chemnitz","url":"https://chaoschemnitz.de","address":"Augustusburger Str. 102, 09126 Chemnitz, Germany","lat":"50.830659","lng":"12.939537","contact_email":"","contact_wiki":"","contact_ml":"kontakt@chaoschemnitz.de","contact_irc":""},{"id":33,"name":"Chaostreff Dortmund","url":"https://www.chaostreff-dortmund.de/","address":"Braunschweiger Str 22, 44145 Dortmund, Germany","lat":"51.527611","lng":"7.4649449","contact_email":"","contact_wiki":"","contact_ml":"discuss@lists.chaostreff-dortmund.de","contact_irc":"irc://irc.hackint.eu/#ccc.do"},{"id":34,"name":"Chaos Computer Club Flensburg","url":"https://c3fl.de","address":"Apenrader Str. 49, 24939 Flensburg","lat":"54.8045778","lng":"9.4224836","contact_email":"mail@c3fl.de","contact_wiki":"","contact_ml":"","contact_irc":""},{"id":35,"name":"Chaostreff Ludwigsburg","url":"https://complb.de","address":"Akademiehof 10, 71638 Ludwigsburg, Germany","lat":"48.893","lng":"9.192","contact_email":"chaostreff@complb.de","contact_wiki":"","contact_ml":"","contact_irc":""},{"id":36,"name":"Chaostreff Potsdam (CCCP)","url":"https://www.ccc-p.org/","address":"machBar, freiLand - Haus 5, Friedrich-Engels-Str. 22, 14473 Potsdam, Germany","lat":"52.389424","lng":"13.078555","contact_email":"","contact_wiki":"","contact_ml":"treff@ccc-p.org","contact_irc":""},{"id":37,"name":"c3RE e.V. - Chaostreff Recklinghausen","url":"https://c3re.de","address":"Westcharweg 101, 45659 Recklinghausen","lat":"51.62435592244","lng":"7.1690101828426","contact_email":"kontakt@c3RE.de","contact_wiki":"","contact_ml":"","contact_irc":""},{"id":38,"name":"Chaos Computer Club Zürich","url":"https://www.ccczh.ch/","address":"Chaos Computer Club Zürich, ℅ Verein Bitwäscherei, Neue Hard 12, CH-8005 Zürich, Switzerland","lat":"47.38698","lng":"8.52017","contact_email":"vorstand@ccczh.ch","contact_wiki":"","contact_ml":"zuerich@chaostreff.ch","contact_irc":"ircs://irc.chaostreff.ch:6601/#ccczh"},{"id":39,"name":"ChaosZone","url":"https://chaoszone.cz","address":"Space","lat":"36.5516","lng":"-159.6696","contact_email":"chaoszone@eigenbaukombinat.de","contact_wiki":"","contact_ml":"","contact_irc":""},{"id":40,"name":"CDL - Computer Deconstruction Lab","url":"https://compdecon.github.io/","address":"Computer Deconstruction Lab, Building 9059, 2201 Marconi Road, Wall Township, N.J. 07719, USA","lat":"40.18652189759892","lng":"-74.06013028703497","contact_email":"info@compdecon.org","contact_wiki":"","contact_ml":"cdl@groups.io","contact_irc":""},{"id":41,"name":"coredump","url":"https://www.coredump.ch/","address":"Lenzikon 32B, 8732 Neuhaus, Switzerland","lat":"47.2251","lng":"8.8339","contact_email":"vorstand@lists.coredump.ch","contact_wiki":"","contact_ml":"","contact_irc":"irc://irc.libera.chat/#coredump"},{"id":42,"name":"das Labor e.V.","url":"https://das-labor.org","address":"Alleestrasse 50, 44793 Bochum, Germany","lat":"51.4806253","lng":"7.2065778","contact_email":"","contact_wiki":"","contact_ml":"discuss@lists.das-labor.org","contact_irc":""},{"id":43,"name":"DevLoL","url":"https://devlol.org","address":"Hofgasse 19, 4020 Linz, Austria","lat":"48.30573","lng":"14.28383","contact_email":"","contact_wiki":"","contact_ml":"devlol-orga@lists.servus.at","contact_irc":"ircs://irc.servus.at:6667/devlol"},{"id":44,"name":"dezentrale","url":"https://dezentrale.space","address":"Eisenbahnstr. 9, 04315 Leipzig","lat":"51.3464008","lng":"12.396221","contact_email":"vorstand@dezentrale.space","contact_wiki":"","contact_ml":"","contact_irc":""},{"id":45,"name":"East Essex Hackspace","url":"https://eehack.space","address":"Hawkwell Pavilion, Park Gardens, Hockley, SS5 4HF, United Kingdom","lat":"51.596974","lng":"0.672686","contact_email":"","contact_wiki":"","contact_ml":"","contact_irc":""},{"id":46,"name":"Edinburgh Hacklab","url":"https://edinburghhacklab.com/","address":"1 Summerhall, Edinburgh, EH9 1PL, United Kingdom","lat":"55.939797","lng":"-3.18162","contact_email":"info@edinburghhacklab.com","contact_wiki":"","contact_ml":"","contact_irc":"ircs://irc.libera.chat/#edinhacklab"},{"id":47,"name":"Eigenbaukombinat Halle e.V.","url":"https://eigenbaukombinat.de","address":"Landsberger Straße 3, 06112 Halle (Saale), Germany","lat":"51.47996","lng":"11.99221","contact_email":"kontakt@eigenbaukombinat.de","contact_wiki":"","contact_ml":"","contact_irc":""},{"id":48,"name":"Entropia","url":"https://entropia.de/","address":"Entropia e.V., Gewerbehof, Steinstraße 23, 76133 Karlsruhe, Germany","lat":"49.0067","lng":"8.407438","contact_email":"info@entropia.de","contact_wiki":"","contact_ml":"news@list.entropia.de","contact_irc":"irc://irc.hackint.eu/#entropia"},{"id":49,"name":"Farset Labs","url":"https://www.farsetlabs.org.uk","address":"1 Weavers Court, Linfield Industrial Estate, Belfast, BT125GH, UK","lat":"54.592813","lng":"-5.94068","contact_email":"info@farsetlabs.org.uk","contact_wiki":"","contact_ml":"","contact_irc":"irc://irc.freenode.net/#farsetlabs"},{"id":50,"name":"FAU FabLab","url":"https://fablab.fau.de/","address":"Raum U1.239\nErwin-Rommel-Straße 60\n91058 Erlangen\nGermany","lat":"49.574","lng":"11.03","contact_email":"","contact_wiki":"","contact_ml":"fablab-aktive@fablab.fau.de","contact_irc":""},{"id":51,"name":"FIXME","url":"https://fixme.ch","address":"Chemin du Closel 3, 1020 Renens, Switzerland","lat":"46.532372","lng":"6.591292","contact_email":"info@fixme.ch","contact_wiki":"https://wiki.fixme.ch","contact_ml":"hackerspace-lausanne@lists.saitis.net","contact_irc":"irc://freenode/#fixme"},{"id":52,"name":"FabLab Allgäu","url":"https://fablab-allgaeu.de","address":"87435 Kempten, Germany","lat":"47.725","lng":"10.321","contact_email":"info@fablab-allgaeu.de","contact_wiki":"","contact_ml":"http://lists.fablab-allgaeu.de/cgi-bin/mailman/listinfo","contact_irc":""},{"id":53,"name":"FabLab Karlsruhe e.V.","url":"https://fablab-karlsruhe.de/","address":"Alter Schlachthof 25a, 76131 Karlsruhe, Germany","lat":"49.004452253610175","lng":"8.429180916835117","contact_email":"labinfo@fablab-karlsruhe.de","contact_wiki":"","contact_ml":"","contact_irc":""},{"id":54,"name":"FabLab Nürnberg","url":"http://fablab-nuernberg.de/","address":"Fab Lab Nürnberg e.V., Schwabacher Str. 512, 90763 Fürth, Germany","lat":"49.437651","lng":"10.992536","contact_email":"","contact_wiki":"","contact_ml":"","contact_irc":"irc://chat.freenode.net/#fln"},{"id":55,"name":"Forschung und Technik e.V.","url":"https://forschungundtechnikev.de","address":"Am Seitenkanal 8b, 49811 Lingen, Germany","lat":"52.485936","lng":"7.333012","contact_email":"info@futev.de","contact_wiki":"","contact_ml":"","contact_irc":""},{"id":56,"name":"Frack","url":"https://frack.nl","address":"Blokhuisplein 40, 8911 LJ, Leeuwarden, The Netherlands","lat":"53.1997015","lng":"5.8005792","contact_email":"info@frack.nl","contact_wiki":"","contact_ml":"general@frack.nl","contact_irc":"irc://irc.eth-0.nl/#frack"},{"id":57,"name":"Freies Labor","url":"https://freieslabor.org","address":"Borsigstr. 6, 31135 Hildesheim, Germany","lat":"52.16893525221396","lng":"9.978310776453897","contact_email":"kontakt@freieslabor.org","contact_wiki":"","contact_ml":"freieslabor@freieslabor.org","contact_irc":""},{"id":58,"name":"Gold Coast TechSpace Inc.","url":"https://gctechspace.org/","address":"57A Railway St, Mudgeeraba QLD 4213, Australia","lat":"153.36456032145182","lng":"-28.07861211995512","contact_email":"manager@gctechspace.org","contact_wiki":"","contact_ml":"","contact_irc":""},{"id":59,"name":"Halk","url":"https://hal9k.dk","address":"Sofiendalsvej 80, 9000 Aalborg, Denmark","lat":"57.0187","lng":"9.882","contact_email":"bestyrelse@hal9k.dk","contact_wiki":"","contact_ml":"","contact_irc":""},{"id":60,"name":"H.A.C.K.","url":"https://hsbp.org","address":"Bástya u. 12., 1056 Budapest, Hungary","lat":"47.489167","lng":"19.059444","contact_email":"hack@hsbp.org","contact_wiki":"","contact_ml":"hspbp@googlegroups.com","contact_irc":"irc://irc.atw-inter.net/hspbp"},{"id":61,"name":"HSBNE Inc.","url":"https://hsbne.org","address":"221c MacArthur Ave, Eagle Farm QLD 4009","lat":"0","lng":"153","contact_email":"contact@hsbne.org","contact_wiki":"","contact_ml":"","contact_irc":""},{"id":62,"name":"Hack Manhattan","url":"https://hackmanhattan.com/","address":"34 West 37th Street 2nd floor rear, New York, NY 10018, United States","lat":"40.7510781","lng":"-73.9859118","contact_email":"info@hackmanhattan.com","contact_wiki":"","contact_ml":"","contact_irc":""},{"id":63,"name":"Hack42","url":"https://hack42.nl/","address":"Cruquiusweg 3, 6827BL Arnhem, Nederland","lat":"51.97708","lng":"5.94022","contact_email":"info@hack42.nl","contact_wiki":"","contact_ml":"hack42@lists.hack42.nl","contact_irc":"irc://irc.oftc.net/#hack42"},{"id":64,"name":"Hackalot","url":"https://hackalot.nl/","address":"Fransebaan 93, 5627 JP Eindhoven, The Netherlands","lat":"51.4842127","lng":"5.4494473","contact_email":"bestuur@hackalot.nl","contact_wiki":"","contact_ml":"hackalot@lijst.hackalot.nl","contact_irc":"ircs://irc.libera.chat:6697/hackalot"},{"id":65,"name":"Hacker Embassy","url":"https://hackem.cc/","address":"Pushkina str. 38/18, Yerevan, Armenia","lat":"40.18258","lng":"44.51338","contact_email":"hacker.embassy@proton.me","contact_wiki":"","contact_ml":"","contact_irc":""},{"id":66,"name":"Hackeriet","url":"https://hackeriet.no","address":"Hausmania, Hausmannsgate 34, 0182 Oslo, Norway","lat":"59.919293","lng":"10.753475","contact_email":"styret@__SOPPELPOST__hackeriet.no","contact_wiki":"","contact_ml":"","contact_irc":"irc://irc.libera.chat/#oslohackerspace"},{"id":67,"name":"Hackerspace Bielefeld e.V.","url":"https://hackerspace-bielefeld.de","address":"Blomestrasse 27, 33609 Bielefeld, Germany","lat":"52.036938093117","lng":"8.569233958072","contact_email":"vorstand@hackerspace-bielefeld.de","contact_wiki":"","contact_ml":"public@hackerspace-bielefeld.de","contact_irc":""},{"id":68,"name":"Hackerspace Bremen e.V.","url":"http://www.hackerspace-bremen.de","address":"","lat":"","lng":"","contact_email":"info@hackerspace-bremen.de","contact_wiki":"","contact_ml":"","contact_irc":""},{"id":69,"name":"HSBXL","url":"https://hsbxl.be","address":"Rue Osseghem 53 (Lion City), 1080 Bruxelles, BELGIUM","lat":"50.8553336","lng":"4.3202945","contact_email":"contact@hsbxl.be","contact_wiki":"","contact_ml":"","contact_irc":""},{"id":70,"name":"Hackerspace Drenthe","url":"https://hackerspace-drenthe.nl","address":"Van Heekerenlaan 2, 7742 AB Coevorden, Netherlands, Entrance: graaf van Helden Reinesteinlaan / Fablab","lat":"52.6596375","lng":"6.754659","contact_email":"bestuur AT hackerspace-drenthe.nl","contact_wiki":"","contact_ml":"","contact_irc":""},{"id":71,"name":"Hackerspace Drenthe (Emmmen)","url":"https://hackerspace-drenthe.nl","address":"Eerste Bokslootweg 1, Emmen","lat":"52.776987","lng":"6.907518","contact_email":"bestuur AT hackerspace-drenthe.nl","contact_wiki":"","contact_ml":"","contact_irc":""},{"id":72,"name":"Hackerspace.Gent","url":"https://hackerspace.gent","address":"Wiedauwkaai 51, 9032 Gent, Belgium","lat":"51.07478","lng":"3.72446","contact_email":"info@hackerspace.gent","contact_wiki":"","contact_ml":"ghent@discuss.hackerspaces.be","contact_irc":""},{"id":73,"name":"Hackerspace Nijmegen","url":"http://hackerspacenijmegen.nl","address":"Villanovastraat 4, 6542 JA, Nijmegen, The Netherlands","lat":"51.83753","lng":"5.84466","contact_email":"info@hackerspacenijmegen.nl","contact_wiki":"","contact_ml":"","contact_irc":"irc://Libera/#hsnijmegen"},{"id":74,"name":"Hackerspace.gr","url":"https://www.hackerspace.gr","address":"Ampatielou 11, 11144 Athens, Greece","lat":"38.01695","lng":"23.73124","contact_email":"","contact_wiki":"","contact_ml":"discuss@hackerspace.gr","contact_irc":"irc://chat.freenode.net/#hsgr"},{"id":75,"name":"Hackerspace Trójmiasto","url":"https://hs3.pl/","address":"al. Wojska Polskiego 41, 80-268 Gdańsk, Poland","lat":"54.38976656812341","lng":"18.581582307815555","contact_email":"kontakt@hs3.pl","contact_wiki":"","contact_ml":"","contact_irc":""},{"id":76,"name":"Hacklabor","url":"http://hacklabor.de","address":"Hagenower Str. 73, 19061 Schwerin, Germany","lat":"53.6011","lng":"11.4183","contact_email":"inbox@hacklabor.de","contact_wiki":"","contact_ml":"","contact_irc":""},{"id":77,"name":"Hacksaar","url":"https://www.hacksaar.de","address":"Rathausstraße 18, 66125 Saarbrücken, Germany","lat":"49.2793","lng":"7.035725","contact_email":"vorstand@hacksaar.de","contact_wiki":"","contact_ml":"public@lists.hacksaar.de","contact_irc":""},{"id":78,"name":"HaSi e.V.","url":"https://ha.si","address":"Effertsufer 104, 57072 Siegen, Germany","lat":"50.86904","lng":"8.00464","contact_email":"kontakt@ha.si","contact_wiki":"","contact_ml":"","contact_irc":""},{"id":79,"name":"Hakierspejs Łódź","url":"https://lodz.hackerspace.pl","address":"Zielona 30 l.u. 3, Łódź, Poland","lat":"51.76924","lng":"19.4452769","contact_email":"kontakt [ ^ AT ^ ] hakierspejs.pl","contact_wiki":"","contact_ml":"","contact_irc":"irc://irc.libera.chat/hakierspejs"},{"id":80,"name":"hacKNology e.V.","url":"https://www.hacknology.de","address":"Blarerstraße 56, 78462 Konstanz, Germany","lat":"47.65942","lng":"9.16594","contact_email":"info@hacknology.de","contact_wiki":"","contact_ml":"public@lists.hacknology.de","contact_irc":""},{"id":81,"name":"haxko","url":"https://haxko.space/","address":"Kurfürstendamm 1, 56626 Andernach, Germany","lat":"50.4345","lng":"7.4045","contact_email":"kontakt@haxko.space","contact_wiki":"","contact_ml":"","contact_irc":"ircs://irc.hackint.org:6697/#haxko"},{"id":82,"name":"HeatSync Labs","url":"http://www.heatsynclabs.org","address":"","lat":"","lng":"","contact_email":"","contact_wiki":"","contact_ml":"http://groups.google.com/group/heatsynclabs","contact_irc":"irc://irc.freenode.net/#heatsynclabs"},{"id":83,"name":"HTU Graz - E-Lab","url":"https://elab.htu.tugraz.at","address":"Inffeldgasse 10, 8010 Graz, Austria","lat":"47.05834","lng":"15.459288","contact_email":"elab@htu.tugraz.at","contact_wiki":"","contact_ml":"","contact_irc":""},{"id":84,"name":"ibb_space","url":"https://ibbspace.org","address":"Wilhelmstrasse 239, 49479 Ibbenbueren, Germany","lat":"52.269986747852855","lng":"7.7421172141685695","contact_email":"ibbspace@fstl-ibb.de","contact_wiki":"","contact_ml":"","contact_irc":""},{"id":85,"name":"IT-Syndikat","url":"https://it-syndikat.org/","address":"Tschamlerstrasse 3, 6020 Innsbruck, Austria","lat":"47.257827","lng":"11.3961024","contact_email":"wir@it-syndikat.org","contact_wiki":"","contact_ml":"","contact_irc":"ircs://libera.chat/#it-syndikat"},{"id":86,"name":"K4CG","url":"https://k4cg.org","address":"Koenigstraße 93, 90402 Nuernberg","lat":"49.4487901","lng":"11.0819743","contact_email":"info@k4cg.org","contact_wiki":"","contact_ml":"k4cg@k4cg.org","contact_irc":""},{"id":87,"name":"Ko-Lab Mechelen","url":"https://ko-lab.space/","address":"Potterijstraat 5, 2800 Mechelen, Belgium","lat":"51.02204","lng":"4.4828","contact_email":"info@ko-lab.space","contact_wiki":"","contact_ml":"","contact_irc":""},{"id":88,"name":"Krautspace – Hackspace Jena e.V.","url":"https://kraut.space","address":"Hackspace Jena e. V., Krautgasse 26, 07743 Jena, Germany","lat":"50.9292","lng":"11.5826","contact_email":"office@kraut.space","contact_wiki":"","contact_ml":"","contact_irc":""},{"id":89,"name":"LAG","url":"http://laglab.org","address":"Eerste Schinkelstraat 16, 1075 TX Amsterdam, The Netherlands","lat":"52.35406","lng":"4.85423","contact_email":"info@laglab.org","contact_wiki":"","contact_ml":"","contact_irc":"irc://irc.indymedia.nl/#lag"},{"id":90,"name":"Laboratorio Hacker de Campinas","url":"https://lhc.net.br","address":"Rua Araribóia, 121 - Campinas - SP, Brazil","lat":"-22.9177931","lng":"-47.0550707","contact_email":"contato@lhc.net.br","contact_wiki":"","contact_ml":"","contact_irc":""},{"id":91,"name":"LeineLab","url":"https://leinelab.org","address":"LeineLab, Hüttenstraße 22B, 30165 Hannover","lat":"52.39314","lng":"9.72285","contact_email":"anfragen@leinelab.org","contact_wiki":"","contact_ml":"hspace@lists.leinelab.org","contact_irc":""},{"id":92,"name":"Level2","url":"https://level2.lu","address":"87, route de Thionville, L-2611 Bonnevoie, Luxembourg","lat":"49.591595","lng":"6.14051","contact_email":"info@syn2cat.lu","contact_wiki":"","contact_ml":"syn2cat-discuss@lists.hackerspace.lu","contact_irc":""},{"id":93,"name":"Linux User Group Saar e.V.","url":"https://lugsaar.de/","address":"Luxemburger Ring 8, 66740 Saarlouis, Germany","lat":"49.31327","lng":"6.7469","contact_email":"info@lug-saar.de","contact_wiki":"","contact_ml":"","contact_irc":""},{"id":94,"name":"London Hackspace","url":"https://london.hackspace.org.uk","address":"41–43 Standard Road, The Republic of Park Royal, Ealing, NW10 6HF","lat":"51.5277","lng":"-0.2642","contact_email":"contact@london.hackspace.org.uk","contact_wiki":"","contact_ml":"london-hack-space@googlegroups.com","contact_irc":"ircs://chat.freenode.net/london-hack-space"},{"id":95,"name":"LuXeria","url":"https://luxeria.ch/","address":"Ebikonerstrasse 75, CH-6043 Adligenswil, Switzerland","lat":"47.073","lng":"8.357","contact_email":"zimmermann.anja@outlook.com","contact_wiki":"","contact_ml":"","contact_irc":"irc://irc.libera.chat/luxeria"},{"id":96,"name":"Maakplek","url":"https://www.maakplek.nl","address":"Maakplek, Struisvogelstraat 15, 9713 BT, Groningen, The Netherlands","lat":"53.231056","lng":"6.58389","contact_email":"welkom@maakplek.nl","contact_wiki":"","contact_ml":"","contact_irc":""},{"id":97,"name":"Mainframe","url":"https://mainframe.io/","address":"Bahnhofsplatz 10, 26122 Oldenburg, Germany","lat":"53.14402","lng":"8.21988","contact_email":"vorstand@kreativitaet-trifft-technik.de","contact_wiki":"","contact_ml":"https://mailman.ktt-ol.de/postorius/lists/diskussion.lists.ktt-ol.de/","contact_irc":""},{"id":98,"name":"MakeSpace Madrid","url":"https://makespacemadrid.org","address":"Calle Ruiz Palacios 7, 28039 Madrid, Spain","lat":"40.46171","lng":"-3.70434","contact_email":"info@makespacemadrid.org","contact_wiki":"","contact_ml":"","contact_irc":""},{"id":99,"name":"Makers Local 256","url":"https://256.makerslocal.org","address":"","lat":"","lng":"","contact_email":"contact@makerslocal.org","contact_wiki":"","contact_ml":"http://lists.makerslocal.org/","contact_irc":"irc://chat.freenode.net/#makerslocal"},{"id":100,"name":"Makers im Zigerschlitz","url":"https://zigerschlitzmakers.ch","address":"","lat":"47.0988111","lng":"9.0698778","contact_email":"info@zigerschlitzmakers.ch","contact_wiki":"","contact_ml":"","contact_irc":""},{"id":101,"name":"Makerspace Erfurt","url":"https://makerspace-erfurt.de","address":"Buessleber Gasse 1, 99084 Erfurt, Germany","lat":"50.973251","lng":"11.036885","contact_email":"kontakt@technikkultur-erfurt.de","contact_wiki":"","contact_ml":"","contact_irc":""},{"id":102,"name":"makerspace-gt","url":"https://makerspace-gt.de","address":"Bogenstrasse 1-8, 33330 Guetersloh, Germany","lat":"51.9021432","lng":"8.3750429","contact_email":"info@makerspace-gt.de","contact_wiki":"","contact_ml":"","contact_irc":""},{"id":103,"name":"Makerspace Leiden","url":"https://makerspaceleiden.nl/","address":"Volmolengracht 13, 2312 PG Leiden","lat":"52.16270661099023","lng":"4.493948742846493","contact_email":"bestuur@makerspaceleiden.nl","contact_wiki":"","contact_ml":"","contact_irc":""},{"id":104,"name":"Maker Space","url":"https://www.makerspace.org.uk/","address":"Maker Space, c/o Orbis Community, Ground Floor, 65 High Street, Gateshead, NE8 2AP","lat":"54.9652","lng":"-1.60233","contact_email":"","contact_wiki":"","contact_ml":"north-east-makers@googlegroups.com","contact_irc":""},{"id":105,"name":"Maschinendeck","url":"https://maschinendeck.org","address":"Eurener Straße 48Z, 54294 Trier, Germany","lat":"49.75014","lng":"6.61661","contact_email":"kontakt@maschinendeck.org","contact_wiki":"","contact_ml":"public-subscribe@maschinendeck.org","contact_irc":"irc://irc.libera.chat/maschinendeck"},{"id":106,"name":"metameute","url":"https://www.metameute.de","address":"Gebäude 64, Ratzeburger Allee 160, 23562 Lübeck, Germany","lat":"53.83379316748737","lng":"10.704296399131595","contact_email":"metameute@asta.uni-luebeck.de","contact_wiki":"","contact_ml":"","contact_irc":""},{"id":107,"name":"Milton Keynes Makerspace","url":"https://mkmakerspace.co.uk","address":"30 Burners Lane, Kiln Farm, Milton Keynes MK11 3HB","lat":"52.041439","lng":"-0.76056","contact_email":"","contact_wiki":"","contact_ml":"https://groups.google.com/g/milton-keynes-makerspace","contact_irc":""},{"id":108,"name":"Milwaukee Makerspace","url":"http://milwaukeemakerspace.org","address":"2555 South Lenox Street, Milwaukee, WI 53207, USA","lat":"42.998085","lng":"-87.898484","contact_email":"info@milwaukeemakerspace.org","contact_wiki":"","contact_ml":"milwaukeemakerspace@googlegroups.com","contact_irc":""},{"id":109,"name":"Minsk Hackerspace","url":"https://hackerspace.by","address":"Basement near the entrance 3, vul. Biady 45, Minsk, Belarus","lat":"53.94287","lng":"27.59749","contact_email":"info@hackerspace.by","contact_wiki":"","contact_ml":"hackerspace-minsk@googlegroups.com","contact_irc":"irc://irc.bynets.org/#hackerspace"},{"id":110,"name":"MuCCC","url":"https://muc.ccc.de","address":"Heßstrasse 90, München, Germany","lat":"48.15367","lng":"11.56078","contact_email":"info@muc.ccc.de","contact_wiki":"","contact_ml":"talk@lists.muc.ccc.de","contact_irc":"ircs://irc.hackint.org/#muccc"},{"id":111,"name":"Munich Maker Lab","url":"https://munichmakerlab.de/","address":"Dachauer Str. 112h, 80636 München, Germany","lat":"48.158752","lng":"11.5482333","contact_email":"info@munichmakerlab.de","contact_wiki":"","contact_ml":"discuss@munichmakerlab.de","contact_irc":"irc://irc.hackint.eu/munichmakerlab"},{"id":112,"name":"<name>space","url":"https://www.buergernetz-gera-greiz.de/namespace","address":"An der Salzstraße 13-15, 07551 Gera, Germany","lat":"50.836953","lng":"12.078655","contact_email":"namespace@buergernetz-gera-greiz.de","contact_wiki":"","contact_ml":"","contact_irc":""},{"id":113,"name":"NURDspace","url":"https://nurdspace.nl/","address":"Vergersweg 22-24, 6707 HT Wageningen, The Netherlands","lat":"51.973273","lng":"5.669681","contact_email":"","contact_wiki":"","contact_ml":"nurds@nurdspace.nl","contact_irc":"irc://irc.oftc.net/#nurds"},{"id":114,"name":"Nerd2Nerd","url":"http://www.nerd2nerd.org","address":"Veitshöchheimer Str. 14, 97080 Würzburg, Germany","lat":"49.801806","lng":"9.923105","contact_email":"info@nerd2nerd.org","contact_wiki":"","contact_ml":"nerd2nerd@nerd2nerd.org","contact_irc":"irc://irc.nerd2nerd.org:6697/#geeks"},{"id":115,"name":"Nerdberg","url":"https://www.nerdberg.de","address":"Jakobinenstraße 26, 90762 Fuerth, Germany","lat":"49.47048","lng":"11.0033","contact_email":"vorstand@lists.nerdberg.de","contact_wiki":"","contact_ml":"freunde@lists.nerdberg.de","contact_irc":"irc://irc.hackint.org/nerdberg"},{"id":116,"name":"Nottinghack","url":"https://nottinghack.org.uk","address":"Unit F6 Roden House, Roden Street, Nottingham, NG3 1JH, ","lat":"52.9557","lng":"-1.135","contact_email":"","contact_wiki":"","contact_ml":"nottinghack@googlegroups.com","contact_irc":"ircs://irc.libera.chat:6697/#nottinghack"},{"id":117,"name":"Odenwilusenz","url":"https://odenwilusenz.ch","address":"Hardmorgenweg 21, 8222 Beringen, Switzerland","lat":"47.695","lng":"8.58","contact_email":"mail@odenwilusenz.ch","contact_wiki":"","contact_ml":"","contact_irc":""},{"id":118,"name":"økoyono","url":"https://okoyono.de/","address":"ANX84, netcup colocation in the NorthC RZ, Nürnberg, Germany","lat":"49.3895261","lng":"11.1764104","contact_email":"spaceapi@økoyono.de","contact_wiki":"","contact_ml":"","contact_irc":""},{"id":119,"name":"Omega Verksted","url":"https://omegav.no","address":"Omega Verksted, O. S. Bragstads Plass 2G, 7034 Trondheim, Norway","lat":"63.41861","lng":"10.40196","contact_email":"omegav@omegav.no","contact_wiki":"","contact_ml":"","contact_irc":""},{"id":120,"name":"Open Space Aarhus","url":"https://osaa.dk","address":"Open Space Aarhus, Olof Palmes Allé 11, 8200 Aarhus N, Denmark","lat":"56.1860826","lng":"10.1871765","contact_email":"info@osaa.dk","contact_wiki":"","contact_ml":"openspaceaarhus@googlegroups.com","contact_irc":""},{"id":121,"name":"OpenLab Augsburg","url":"https://openlab-augsburg.de","address":"Bäckergasse 32, 86150 Augsburg, Germany","lat":"48.36263","lng":"10.90261","contact_email":"kontakt@openlab-augsburg.de","contact_wiki":"","contact_ml":"alle@lists.openlab-augsburg.de","contact_irc":"ircs://libera.chat/#augsburg"},{"id":122,"name":"Open-Lab Vorarlberg","url":"https://open-lab.at","address":"M² Klaus, Treietstraße 17, Klaus, Vorarlberg, Austria","lat":"47.30509085141842","lng":"9.646033516048838","contact_email":"info@open-lab.at","contact_wiki":"","contact_ml":"","contact_irc":""},{"id":123,"name":"P'yŏngyang Hackerspace","url":"http://status.pyongyanghackerspace.org","address":"Kim Il-sung University, 1001 P'yŏngyang, Democratic People's Republic of Korea","lat":"39.058056","lng":"125.768333","contact_email":"","contact_wiki":"","contact_ml":"","contact_irc":""},{"id":124,"name":"Pangloss Labs #1","url":"https://panglosslabs.org","address":"12bis rue de Gex, 01210 Ferney-Voltaire, France","lat":"46.25947","lng":"6.107725","contact_email":"enquiries@panglosslabs.org","contact_wiki":"","contact_ml":"","contact_irc":""},{"id":125,"name":"Pawprint Prototyping","url":"https://pawprintprototyping.org","address":"545 Aldo Ave #24, Santa Clara, CA 95054","lat":"37.3857157","lng":"-121.9487247","contact_email":"info@pawprintprototyping.org","contact_wiki":"","contact_ml":"","contact_irc":""},{"id":126,"name":"Perth Artifactory","url":"http://artifactory.org.au/","address":"8/16 Guthrie Street, Osborne Park, WA 6017","lat":"-31.901846","lng":"115.810136","contact_email":"info@artifactory.org.au","contact_wiki":"","contact_ml":"artifactory-core@googlegroups.com","contact_irc":"irc://freenode.net/#artifactory"},{"id":127,"name":"Pixelbar","url":"https://pixelbar.nl","address":"Unit K14.1.01, Schiemond 20, 3024 EE Rotterdam","lat":"51.903083","lng":"4.449638","contact_email":"bestuur@pixelbar.nl","contact_wiki":"","contact_ml":"pixelbar@lists.pixelbar.nl","contact_irc":"irc.smurfnet.ch"},{"id":128,"name":"Polytechnischer Werkraum Zittau","url":"https://www.werkraum.space/","address":"Wächterhaus, Innere Weberstraße 16, 02763 Zittau, Germany, Europe, Planet Earth","lat":"50.8975","lng":"14.8044","contact_email":"werkraum@freiraumzittau.de","contact_wiki":"","contact_ml":"https://lists.freiraumzittau.de/mailman/listinfo/hackerspace","contact_irc":""},{"id":129,"name":"Hackerspace Pomorze","url":"https://hsp.sh","address":"Do Studzienki 28, Gdańsk, Poland","lat":"54.37116","lng":"18.61124","contact_email":"kontakt@pomorze.hackerspace.pl","contact_wiki":"","contact_ml":"","contact_irc":"irc://irc.freenode.net/hsp.sh"},{"id":130,"name":"Port39","url":"https://port39.de","address":"Hafenstraße 20, 18439 Stralsund","lat":"54.31239","lng":"13.10008","contact_email":"info@port39.de","contact_wiki":"","contact_ml":"","contact_irc":""},{"id":131,"name":"Post Tenebras Lab","url":"https://www.posttenebraslab.ch","address":"Avenue de la Praille 36, 1227 Carouge, Switzerland","lat":"46.187134981155396","lng":"6.133659482002258","contact_email":"comite@posttenebraslab.ch","contact_wiki":"","contact_ml":"ptl@posttenebraslab.ch","contact_irc":"irc://irc.freenode.net/#posttenebraslab"},{"id":132,"name":"Programvareverkstedet","url":"https://www.pvv.ntnu.no/","address":"Sem Sælands vei 1, 7034 Trondheim, Norway","lat":"63.4170226","lng":"10.4063852","contact_email":"pvv@pvv.ntnu.no","contact_wiki":"","contact_ml":"","contact_irc":"irc://irc.pvv.ntnu.no/pvv"},{"id":133,"name":"RaumZeitLabor","url":"https://raumzeitlabor.de","address":"RaumZeitLabor, Weinheimer Strasse 58-60, 68309 Mannheim, Germany","lat":"49.5073792","lng":"8.5206065","contact_email":"info@raumzeitlabor.de","contact_wiki":"","contact_ml":"raumzeitlabor@raumzeitlabor.de","contact_irc":"irc://irc.hackint.eu/#raumzeitlabor"},{"id":134,"name":"Recompile","url":"https://www.recompile.se/","address":"Lundavägen 12, 212 18 Malmö, Sweden","lat":"55.6066452","lng":"13.0258658","contact_email":"roots@recompile.se","contact_wiki":"","contact_ml":"","contact_irc":""},{"id":135,"name":"RevSpace","url":"https://revspace.nl/","address":"Overgoo 1, 2266 JZ Leidschendam, The Netherlands","lat":"52.0777306","lng":"4.3901992","contact_email":"board@revspace.nl","contact_wiki":"","contact_ml":"","contact_irc":"irc://libera.chat/#revspace"},{"id":136,"name":"Hackwerk Aalen e.V.","url":"https://aalen.space/","address":"SFZ-Aalen, Aaccelerator, Blezingerstraße 15, 73430 Aalen, Germany","lat":"48.854778","lng":"10.09053","contact_email":"info@aalen.space","contact_wiki":"","contact_ml":"","contact_irc":""},{"id":137,"name":"Schaffenburg","url":"https://www.schaffenburg.org","address":"Dorfstraße 1, 63741 Aschaffenburg, Germany","lat":"49.98778","lng":"9.135833","contact_email":"kontakt@schaffenburg.org","contact_wiki":"","contact_ml":"","contact_irc":"ircs://irc.hackint.org/#schaffenburg"},{"id":138,"name":"Segmentation Vault","url":"https://segvault.space","address":"Segmentation Vault, Ludwig-Stoehr-Strasse 8, 3100 St. Poelten, Austria","lat":"48.20365","lng":"15.62016","contact_email":"info@segvault.space","contact_wiki":"","contact_ml":"","contact_irc":""},{"id":139,"name":"Sheffield Hackspace","url":"https://www.sheffieldhackspace.org.uk","address":"Sheffield Hackspace, Portland Works, Randall St, Highfield, Sheffield S2 4SJ","lat":"53.369933","lng":"-1.473812","contact_email":"trustees@sheffieldhackspace.org.uk","contact_wiki":"","contact_ml":"","contact_irc":""},{"id":140,"name":"So Make It","url":"https://www.somakeit.org.uk","address":"Unit F, Liners Industrial Estate, Southampton, SO15 3FQ, ","lat":"52.9557","lng":"-1.135","contact_email":"","contact_wiki":"","contact_ml":"somakeit@googlegroups.com","contact_irc":""},{"id":141,"name":"Stockholm Makerspace","url":"https://makerspace.se","address":"Drottning Kristinas väg 53, 114 28 Stockholm, Sweden","lat":"59.3505623","lng":"18.0676122","contact_email":"info@makerspace.se","contact_wiki":"","contact_ml":"","contact_irc":""},{"id":142,"name":"Spline","url":"https://spline.de","address":"Takustr. 9, 14195 Berlin, Germany","lat":"52.456097","lng":"13.297432","contact_email":"spline@spline.de","contact_wiki":"","contact_ml":"spline@lists.spline.de","contact_irc":"irc://irc.libera.chat/spline"},{"id":143,"name":"Stratum 0","url":"https://stratum0.org","address":"Hamburger Strasse 273a, Haus A2, 38114 Braunschweig, Germany","lat":"52.2785658","lng":"10.5211247","contact_email":"kontakt@stratum0.org","contact_wiki":"","contact_ml":"normalverteiler@stratum0.org","contact_irc":"ircs://irc.libera.net/#stratum0"},{"id":144,"name":"Subraum","url":"https://c3pb.de/","address":"Westernmauer 12-16, 33098 Paderborn, Germany","lat":"51.71707","lng":"8.74752","contact_email":"mail@c3pb.de","contact_wiki":"","contact_ml":"","contact_irc":""},{"id":145,"name":"Swansea Hackspace","url":"http://swansea.hackspace.org.uk/","address":"21/22 Park Street, Swansea, UK. SA1 3DJ","lat":"51.6202","lng":"-3.9461","contact_email":"info@swansea.hackspace.org.uk","contact_wiki":"","contact_ml":"hackspace@swansea.hackspace.org.uk","contact_irc":""},{"id":146,"name":"TDvenlo","url":"https://www.tdvenlo.nl","address":"Begijnengang 2, 5911 JL, Venlo, The Netherlands","lat":"51.3694","lng":"6.16998","contact_email":"info@tdvenlo.nl","contact_wiki":"","contact_ml":"","contact_irc":""},{"id":147,"name":"TAMI","url":"https://telavivmakers.org","address":"Shoken 19, Tel Aviv, Israel","lat":"32.0525266","lng":"34.77233206","contact_email":"tami@tami.org.il","contact_wiki":"","contact_ml":"","contact_irc":""},{"id":148,"name":"TechTonik Labs","url":"http://sbhackerspace.com","address":"158 Aero Camino, Suite D Santa Barbara, CA 93117","lat":"34.43237","lng":"-119.84842","contact_email":"","contact_wiki":"","contact_ml":"","contact_irc":""},{"id":149,"name":"Technologia Incognita","url":"https://www.techinc.nl","address":"Louwesweg 1, room 1.29B, 1066 EA Amsterdam","lat":"52.345558","lng":"4.826466","contact_email":"hack AT techinc DOT nl","contact_wiki":"https://wiki.techinc.nl","contact_ml":"members@techinc.nl","contact_irc":"#techinc @ OFTC"},{"id":150,"name":"The Bodgery","url":"https://www.thebodgery.org","address":"740 Oscar Ave, Madison, WI  53704","lat":"-89.35572","lng":"43.10854","contact_email":"contact@thebodgery.org","contact_wiki":"","contact_ml":"","contact_irc":""},{"id":151,"name":"The Space Leiden","url":"https://spaceleiden.nl/","address":"Bètaplein 28, 2321KS Leiden, The Netherlands","lat":"52.145807367875896","lng":"4.493707267634785","contact_email":"info@spaceleiden.nl","contact_wiki":"","contact_ml":"","contact_irc":""},{"id":152,"name":"TkkrLab","url":"https://tkkrlab.nl","address":"Marssteden 98, 7547TD Enschede, The Netherlands","lat":"52.2163366","lng":"6.8205472","contact_email":"bestuur@tkkrlab.nl","contact_wiki":"","contact_ml":"","contact_irc":"irc://irc.libera.chat:6697/tkkrlab"},{"id":153,"name":"Toolbox Bodensee e.V.","url":"https://toolbox-bodensee.de","address":"Bergheimerstr. 6, 88677 Markdorf, Germany","lat":"47.712","lng":"9.399","contact_email":"contact@toolbox-bodensee.de","contact_wiki":"","contact_ml":"","contact_irc":""},{"id":154,"name":"UN-Hack-Bar e.V.","url":"https://www.un-hack-bar.de","address":"Hochstraße 10, 59425 Unna, Deutschland","lat":"51.53803424191252","lng":"7.673649787902833","contact_email":"info@un-hack-bar.de","contact_wiki":"","contact_ml":"","contact_irc":""},{"id":155,"name":"Umeå Hackerspace","url":"https://umeahackerspace.se/","address":"Fabriksgatan 8b, 90331 Umeå, Sweden","lat":"63.82326","lng":"20.28208","contact_email":"info@umeahackerspace.se","contact_wiki":"","contact_ml":"","contact_irc":"irc://irc.hethane.se/uhck"},{"id":156,"name":"UrLab","url":"https://urlab.be","address":"Av. Franklin Roosevelt 50, 1000 Brussels, Belgium - ULB: UB2.126","lat":"50.8115138","lng":"4.3828331","contact_email":"contact@urlab.be","contact_wiki":"","contact_ml":"hackulb@cerkinfo.be","contact_irc":"irc://irc.libera.chat#urlab"},{"id":157,"name":"VoidWarranties","url":"https://we.voidwarranties.be","address":"Herrystraat 22, 2100 Deurne (Antwerp), Belgium","lat":"51.208683","lng":"4.453435","contact_email":"voidwarranties@hacktheplanet.be","contact_wiki":"","contact_ml":"","contact_irc":""},{"id":158,"name":"warpzone ","url":"https://www.warpzone.ms","address":"warpzone e.V., Am Hawerkamp 31 Haus G, 48155 Münster, Germany","lat":"51.9436176","lng":"7.6381682","contact_email":"verwaltung@warpzone.ms","contact_wiki":"","contact_ml":"warpzone@warpzone.ms","contact_irc":"irc://hackint.org/#warpzone"},{"id":159,"name":"Warsaw Hackerspace","url":"https://hackerspace.pl","address":"ul. Wolność 2A, 01-018 Warszawa, Poland","lat":"52.2416","lng":"20.98485","contact_email":"","contact_wiki":"","contact_ml":"waw@lists.hackerspace.pl","contact_irc":"irc://irc.libera.chat/#hswaw"},{"id":160,"name":"Westwoodlabs","url":"https://westwoodlabs.de","address":"Rheinstraße 96, Ransbach-Baumbach, Germany","lat":"50.46296","lng":"7.7248087","contact_email":"vorstand@westwoodlabs.de","contact_wiki":"","contact_ml":"","contact_irc":"ircs://irc.hackint.org:6697/westwoodlabs"},{"id":161,"name":"Zeus WPI","url":"https://zeus.ugent.be","address":"Zeuskelder, gebouw S9, Krijgslaan 281, Ghent, Belgium","lat":"51.0231119","lng":"3.7102741","contact_email":"bestuur@zeus.ugent.be","contact_wiki":"","contact_ml":"","contact_irc":""},{"id":162,"name":"[hsmr] Hackspace Marburg","url":"https://hsmr.cc/","address":"[hsmr] Hackspace Marburg, Rudolf-Bultmann-Strasse 2b, 35039 Marburg, Germany","lat":"50.81615","lng":"8.77851","contact_email":"mail@hsmr.cc","contact_wiki":"","contact_ml":"public@lists.hsmr.cc","contact_irc":"ircs://irc.hackint.org:6697/#hsmr"},{"id":163,"name":"backspace","url":"https://www.hackerspace-bamberg.de","address":"Spiegelgraben 41, 96052 Bamberg, Bavaria, Germany","lat":"49.901897799096474","lng":"10.892705619335176","contact_email":"info@hackerspace-bamberg.de","contact_wiki":"","contact_ml":"public@lists.hajjckerspace-bamberg.de","contact_irc":""},{"id":164,"name":"base48","url":"http://base48.cz/","address":"","lat":"","lng":"","contact_email":"","contact_wiki":"","contact_ml":"public@lists.base48.cz","contact_irc":"irc://freenode/#base48"},{"id":165,"name":"Brmlab","url":"https://brmlab.cz/","address":"Pod Kapličkou 3149/18, 13000 Praha 3","lat":"50.08346","lng":"14.48032","contact_email":"","contact_wiki":"","contact_ml":"brmlab@brmlab.cz","contact_irc":"irc://irc.libera.chat/#brmlab"},{"id":166,"name":"bytewerk","url":"https://bytewerk.org","address":"Proviantstraße 12a, 85049 Ingolstadt, Germany","lat":"48.76669","lng":"11.42594","contact_email":"","contact_wiki":"","contact_ml":"public@bingo-ev.de","contact_irc":"irc://irc.libera.chat/#bytewerk"},{"id":167,"name":"c-base","url":"http://www.c-base.org","address":"Rungestr. 20, 2. Hinterhof, 10179 Berlin, Germany","lat":"52.512363","lng":"13.419752","contact_email":"info@c-base.org","contact_wiki":"","contact_ml":"","contact_irc":"ircs://irc.hackint.org/#c-base"},{"id":168,"name":"fNordeingang","url":"https://fnordeingang.de/","address":"Körnerstr. 72, 41464 Neuss, Germany","lat":"51.186234","lng":"6.692624","contact_email":"verein@fnordeingang.de","contact_wiki":"","contact_ml":"","contact_irc":""},{"id":169,"name":"flipdot","url":"https://flipdot.org","address":"Schillerstraße 25, 34117 Kassel","lat":"51.320859320256616","lng":"9.495142012928502","contact_email":"com@flipdot.org","contact_wiki":"","contact_ml":"","contact_irc":"irc://irc.libera.chat/#flipdot"},{"id":170,"name":"hackzogtum","url":"https://hackzogtum-coburg.de","address":"Heiligkreuzstr. 3 - 96450 Coburg, Germany","lat":"50.26315","lng":"10.96611","contact_email":"info@hackzogtum-coburg.de","contact_wiki":"","contact_ml":"talk@chaostreff-coburg.de","contact_irc":"irc://irc.freenode.net/hackzogtumCoburg"},{"id":171,"name":"i3Detroit","url":"https://www.i3detroit.org","address":"1481-A Wordsworth St, Ferndale, MI 48083, USA","lat":"42.45375036492542","lng":"-83.11390310525896","contact_email":"contact@i3detroit.org","contact_wiki":"","contact_ml":"https://groups.google.com/forum/#!forum/i3detroit-public","contact_irc":"libera.chat/#i3detroit"},{"id":172,"name":"init Lab","url":"https://initlab.org","address":"floor 3, 64A, Tsar Asen Str., Sofia, Bulgaria","lat":"42.68795","lng":"23.31691","contact_email":"","contact_wiki":"","contact_ml":"yo@initlab.org","contact_irc":"irc://irc.ludost.net/#initlab"},{"id":173,"name":"mag.lab","url":"https://maglab.space","address":"LindenstraÃe 14, 36037 Fulda, Germany","lat":"50.55239","lng":"9.68076","contact_email":"","contact_wiki":"","contact_ml":"mag.lab@lists.open-mail.net","contact_irc":"irc://irc.hackint.org/#mag.lab"},{"id":174,"name":"nbsp","url":"http://chaotikum.org","address":"Fackenburger Allee 11, 23554 Luebeck, Germany","lat":"53.8688","lng":"10.6712","contact_email":"info+spaceapi@chaotikum.org","contact_wiki":"","contact_ml":"info@chaotikum.org","contact_irc":""},{"id":175,"name":"realraum","url":"https://realraum.at","address":"Brockmanngasse 15, 8010 Graz, Austria","lat":"47.065554","lng":"15.450435","contact_email":"vorstand@realraum.at","contact_wiki":"","contact_ml":"realraum@realraum.at","contact_irc":"irc://irc.oftc.net/#realraum"},{"id":176,"name":"see-base","url":"https://see-base.de","address":"Rengoldshauserstr., 88662 Ueberlingen, Germany","lat":"47.77252","lng":"9.19997","contact_email":"kommunikation@see-base.de","contact_wiki":"","contact_ml":"","contact_irc":""},{"id":177,"name":"section77","url":"https://section77.de/","address":"Hauptstraße 1, 77652 Offenburg, Germany","lat":"48.4771","lng":"7.9461","contact_email":"info@section77.de","contact_wiki":"","contact_ml":"","contact_irc":""},{"id":178,"name":"shackspace - stuttgart hackerspace","url":"https://shackspace.de","address":"Ulmer Strasse 300, 70327 Stuttgart, Germany","lat":"48.7745","lng":"9.239","contact_email":"kontakt@shackspace.de","contact_wiki":"","contact_ml":"public@shackspace.de","contact_irc":"irc://irc.libera.chat:6697/shackspace"},{"id":179,"name":"space-left","url":"https://www.space-left.org","address":"Josephstr. 2, 44791 Bochum, Germany","lat":"51.49367","lng":"7.2108","contact_email":"info@space-left.org","contact_wiki":"","contact_ml":"discuss@space-left.org","contact_irc":""},{"id":180,"name":"turmlabor","url":"http://www.turmlabor.de","address":"Hochschulgruppe Turmlabor, c/o Fachschaftsrat Elektrotechnik, Helmholzstr. 18, Technische UniversitÃ¤t Dresden, 01062 Dresden, Germany","lat":"51.02709","lng":"13.72358","contact_email":"nachtsnochlicht@turmlabor.de","contact_wiki":"","contact_ml":"","contact_irc":""},{"id":181,"name":"temporärhaus","url":"https://temporaerhaus.de/","address":"Augsburger Str. 23-25, 89231 Neu-Ulm, Germany","lat":"48.3962895","lng":"10.0019903","contact_email":"kontakt@temporaerhaus.de","contact_wiki":"","contact_ml":"","contact_irc":""},{"id":182,"name":"vspace.one","url":"https://vspace.one","address":"Am Krebsgraben 15, 78048 VS-Villingen, Germany","lat":"48.067688","lng":"8.444397","contact_email":"info@vspace.one","contact_wiki":"","contact_ml":"","contact_irc":""},{"id":183,"name":"xHain hack+makespace","url":"https://x-hain.de","address":"Grünberger Str. 16, 10243 Berlin, Germany","lat":"52.5127904","lng":"13.4497773","contact_email":"info@x-hain.de","contact_wiki":"","contact_ml":"","contact_irc":""},{"id":184,"name":"z-Labor Zwickau","url":"https://z-labor.space","address":"Seilerstrasse 1, 08056 Zwickau, Germany","lat":"50.722616453","lng":"12.480350733","contact_email":"info@z-labor.space","contact_wiki":"","contact_ml":"","contact_irc":"irc://irc.hackint.eu/#z-labor"}]
